{
  "type": "FeatureCollection",
  "features": [
    {
      "type": "Feature",
      "id": "a000",
      "properties": {
        "zip": "10200",
        "province": "กรุงเทพมหานคร",
        "district": "พระนคร",
      },
      "geometry": {
        "type": "Point",
        "coordinates": [
          100.5502672891023,
          13.72673512982733
        ]
      }
    },
    {
      "type": "Feature",
      "id": "a001",
      "properties": {
        "zip": "10200",
        "province": "กรุงเทพมหานคร",
        "district": "พระนคร"
      },
      "geometry": {
        "type": "Point",
        "coordinates": [
          100.5421241071256,
          13.7253189421838
        ]
      }
    },
    {
      "type": "Feature",
      "id": "a002",
      "properties": {
        "zip": "10200",
        "province": "กรุงเทพมหานคร",
        "district": "พระนคร"
      },
      "geometry": {
        "type": "Point",
        "coordinates": [
          100.5413289320774,
          13.71770857551128
        ]
      }
    },
    {
      "type": "Feature",
      "id": "a003",
      "properties": {
        "zip": "10200",
        "province": "กรุงเทพมหานคร",
        "district": "พระนคร"
      },
      "geometry": {
        "type": "Point",
        "coordinates": [
          100.5508857585792,
          13.71702191373203
        ]
      }
    },
    {
      "type": "Feature",
      "id": "a00",
      "properties": {
        "zip": "10200",
        "province": "กรุงเทพมหานคร",
        "district": "พระนคร"
      },
      "geometry": {
        "type": "Point",
        "coordinates": [
          100.52746270009652,
          13.731175804053748
        ]
      }
    },
    {
      "type": "Feature",
      "id": "a01",
      "properties": {
        "zip": "10200",
        "province": "กรุงเทพมหานคร",
        "district": "พระนคร"
      },
      "geometry": {
        "type": "Point",
        "coordinates": [
          100.5341085530331,
          13.731535074525539
        ]
      }
    },
    {
      "type": "Feature",
      "id": "a02",
      "properties": {
        "zip": "10200",
        "province": "กรุงเทพมหานคร",
        "district": "พระนคร"
      },
      "geometry": {
        "type": "Point",
        "coordinates": [
          100.53657696542302,
          13.725230865557208
        ]
      }
    },
    {
      "type": "Feature",
      "id": "a03",
      "properties": {
        "zip": "10200",
        "province": "กรุงเทพมหานคร",
        "district": "พระนคร"
      },
      "geometry": {
        "type": "Point",
        "coordinates": [
          100.52965427057529,
          13.720666295712533
        ]
      }
    },
    {
      "type": "Feature",
      "id": "a1",
      "properties": {
        "zip": "10200",
        "province": "กรุงเทพมหานคร",
        "district": "พระนคร"
      },
      "geometry": {
        "type": "Point",
        "coordinates": [
          100.4986793,
          13.7560243
        ]
      }
    },
    {
      "type": "Feature",
      "id": "a2",
      "properties": {
        "zip": "10300",
        "province": "กรุงเทพมหานคร",
        "district": "ดุสิต"
      },
      "geometry": {
        "type": "Point",
        "coordinates": [
          100.5099262,
          13.7726943
        ]
      }
    },
    {
      "type": "Feature",
      "id": "a3",
      "properties": {
        "zip": "10530",
        "province": "กรุงเทพมหานคร",
        "district": "หนองจอก"
      },
      "geometry": {
        "type": "Point",
        "coordinates": [
          100.8619689,
          13.8559883
        ]
      }
    },
    {
      "type": "Feature",
      "id": "a4",
      "properties": {
        "zip": "10500",
        "province": "กรุงเทพมหานคร",
        "district": "บางรัก"
      },
      "geometry": {
        "type": "Point",
        "coordinates": [
          100.5267991,
          13.7262395
        ]
      }
    },
    {
      "type": "Feature",
      "id": "a5",
      "properties": {
        "zip": "10220",
        "province": "กรุงเทพมหานคร",
        "district": "บางเขน"
      },
      "geometry": {
        "type": "Point",
        "coordinates": [
          100.6146434,
          13.864387
        ]
      }
    },
    {
      "type": "Feature",
      "id": "a6",
      "properties": {
        "zip": "10240",
        "province": "กรุงเทพมหานคร",
        "district": "บางกะปิ"
      },
      "geometry": {
        "type": "Point",
        "coordinates": [
          100.6473885,
          13.7650282
        ]
      }
    },
    {
      "type": "Feature",
      "id": "a7",
      "properties": {
        "zip": "10330",
        "province": "กรุงเทพมหานคร",
        "district": "ปทุมวัน"
      },
      "geometry": {
        "type": "Point",
        "coordinates": [
          100.5352367,
          13.7401666
        ]
      }
    },
    {
      "type": "Feature",
      "id": "a8",
      "properties": {
        "zip": "10100",
        "province": "กรุงเทพมหานคร",
        "district": "ป้อมปราบศัตรูพ่าย"
      },
      "geometry": {
        "type": "Point",
        "coordinates": [
          100.5108479,
          13.7514954
        ]
      }
    },
    {
      "type": "Feature",
      "id": "a9",
      "properties": {
        "zip": "10260",
        "province": "กรุงเทพมหานคร",
        "district": "พระโขนง"
      },
      "geometry": {
        "type": "Point",
        "coordinates": [
          100.614025,
          13.6910654
        ]
      }
    },
    {
      "type": "Feature",
      "id": "a10",
      "properties": {
        "zip": "10510",
        "province": "กรุงเทพมหานคร",
        "district": "มีนบุรี"
      },
      "geometry": {
        "type": "Point",
        "coordinates": [
          100.731339,
          13.8130488
        ]
      }
    },
    {
      "type": "Feature",
      "id": "a11",
      "properties": {
        "zip": "10520",
        "province": "กรุงเทพมหานคร",
        "district": "ลาดกระบัง"
      },
      "geometry": {
        "type": "Point",
        "coordinates": [
          100.7486314,
          13.7277339
        ]
      }
    },
    {
      "type": "Feature",
      "id": "a12",
      "properties": {
        "zip": "10120",
        "province": "กรุงเทพมหานคร",
        "district": "ยานนาวา"
      },
      "geometry": {
        "type": "Point",
        "coordinates": [
          100.5151327,
          13.7171256
        ]
      }
    },
    {
      "type": "Feature",
      "id": "a13",
      "properties": {
        "zip": "10100",
        "province": "กรุงเทพมหานคร",
        "district": "สัมพันธวงศ์"
      },
      "geometry": {
        "type": "Point",
        "coordinates": [
          100.5098502,
          13.7380091
        ]
      }
    },
    {
      "type": "Feature",
      "id": "a14",
      "properties": {
        "zip": "10400",
        "province": "กรุงเทพมหานคร",
        "district": "พญาไท"
      },
      "geometry": {
        "type": "Point",
        "coordinates": [
          100.5337793,
          13.7568078
        ]
      }
    },
    {
      "type": "Feature",
      "id": "a15",
      "properties": {
        "zip": "10600",
        "province": "กรุงเทพมหานคร",
        "district": "ธนบุรี"
      },
      "geometry": {
        "type": "Point",
        "coordinates": [
          100.4874338,
          13.7164911
        ]
      }
    },
    {
      "type": "Feature",
      "id": "a16",
      "properties": {
        "zip": "10600",
        "province": "กรุงเทพมหานคร",
        "district": "บางกอกใหญ่"
      },
      "geometry": {
        "type": "Point",
        "coordinates": [
          100.4814589,
          13.7320727
        ]
      }
    },
    {
      "type": "Feature",
      "id": "a17",
      "properties": {
        "zip": "10310",
        "province": "กรุงเทพมหานคร",
        "district": "ห้วยขวาง"
      },
      "geometry": {
        "type": "Point",
        "coordinates": [
          100.5739529,
          13.7790391
        ]
      }
    },
    {
      "type": "Feature",
      "id": "a18",
      "properties": {
        "zip": "10600",
        "province": "กรุงเทพมหานคร",
        "district": "คลองสาน"
      },
      "geometry": {
        "type": "Point",
        "coordinates": [
          100.5087902,
          13.7279708
        ]
      }
    },
    {
      "type": "Feature",
      "id": "a19",
      "properties": {
        "zip": "10170",
        "province": "กรุงเทพมหานคร",
        "district": "ตลิ่งชัน"
      },
      "geometry": {
        "type": "Point",
        "coordinates": [
          100.4284178,
          13.7733179
        ]
      }
    },
    {
      "type": "Feature",
      "id": "a20",
      "properties": {
        "zip": "10700",
        "province": "กรุงเทพมหานคร",
        "district": "บางกอกน้อย"
      },
      "geometry": {
        "type": "Point",
        "coordinates": [
          100.471573,
          13.7604091
        ]
      }
    },
    {
      "type": "Feature",
      "id": "a21",
      "properties": {
        "zip": "10150",
        "province": "กรุงเทพมหานคร",
        "district": "บางขุนเทียน"
      },
      "geometry": {
        "type": "Point",
        "coordinates": [
          100.4331316,
          13.5995816
        ]
      }
    },
    {
      "type": "Feature",
      "id": "a22",
      "properties": {
        "zip": "10160",
        "province": "กรุงเทพมหานคร",
        "district": "ภาษีเจริญ"
      },
      "geometry": {
        "type": "Point",
        "coordinates": [
          100.4577015,
          13.7207491
        ]
      }
    },
    {
      "type": "Feature",
      "id": "a23",
      "properties": {
        "zip": "10160",
        "province": "กรุงเทพมหานคร",
        "district": "หนองแขม"
      },
      "geometry": {
        "type": "Point",
        "coordinates": [
          100.4577015,
          13.7207491
        ]
      }
    },
    {
      "type": "Feature",
      "id": "a24",
      "properties": {
        "zip": "10140",
        "province": "กรุงเทพมหานคร",
        "district": "ราษฎร์บูรณะ"
      },
      "geometry": {
        "type": "Point",
        "coordinates": [
          100.5037003,
          13.6812411
        ]
      }
    },
    {
      "type": "Feature",
      "id": "a25",
      "properties": {
        "zip": "10700",
        "province": "กรุงเทพมหานคร",
        "district": "บางพลัด"
      },
      "geometry": {
        "type": "Point",
        "coordinates": [
          100.5004335,
          13.7919952
        ]
      }
    },
    {
      "type": "Feature",
      "id": "a26",
      "properties": {
        "zip": "10400",
        "province": "กรุงเทพมหานคร",
        "district": "ดินแดง"
      },
      "geometry": {
        "type": "Point",
        "coordinates": [
          100.5433408,
          13.7630761
        ]
      }
    },
    {
      "type": "Feature",
      "id": "a27",
      "properties": {
        "zip": "10240",
        "province": "กรุงเทพมหานคร",
        "district": "บึงกุ่ม"
      },
      "geometry": {
        "type": "Point",
        "coordinates": [
          100.647812,
          13.8038957
        ]
      }
    },
    {
      "type": "Feature",
      "id": "a28",
      "properties": {
        "zip": "10120",
        "province": "กรุงเทพมหานคร",
        "district": "สาทร"
      },
      "geometry": {
        "type": "Point",
        "coordinates": [
          100.510007,
          13.6937454
        ]
      }
    },
    {
      "type": "Feature",
      "id": "a29",
      "properties": {
        "zip": "10800",
        "province": "กรุงเทพมหานคร",
        "district": "บางซื่อ"
      },
      "geometry": {
        "type": "Point",
        "coordinates": [
          100.5393292,
          13.803181
        ]
      }
    },
    {
      "type": "Feature",
      "id": "a30",
      "properties": {
        "zip": "10900",
        "province": "กรุงเทพมหานคร",
        "district": "จตุจักร"
      },
      "geometry": {
        "type": "Point",
        "coordinates": [
          100.5546027,
          13.8037421
        ]
      }
    },
    {
      "type": "Feature",
      "id": "a31",
      "properties": {
        "zip": "10120",
        "province": "กรุงเทพมหานคร",
        "district": "บางคอแหลม"
      },
      "geometry": {
        "type": "Point",
        "coordinates": [
          100.5127381,
          13.6954096
        ]
      }
    },
    {
      "type": "Feature",
      "id": "a32",
      "properties": {
        "zip": "10250",
        "province": "กรุงเทพมหานคร",
        "district": "ประเวศ"
      },
      "geometry": {
        "type": "Point",
        "coordinates": [
          100.645971,
          13.693295
        ]
      }
    },
    {
      "type": "Feature",
      "id": "a33",
      "properties": {
        "zip": "10110",
        "province": "กรุงเทพมหานคร",
        "district": "คลองเตย"
      },
      "geometry": {
        "type": "Point",
        "coordinates": [
          100.5540678,
          13.7225158
        ]
      }
    },
    {
      "type": "Feature",
      "id": "a34",
      "properties": {
        "zip": "10250",
        "province": "กรุงเทพมหานคร",
        "district": "สวนหลวง"
      },
      "geometry": {
        "type": "Point",
        "coordinates": [
          100.6129534,
          13.7194781
        ]
      }
    },
    {
      "type": "Feature",
      "id": "a35",
      "properties": {
        "zip": "10150",
        "province": "กรุงเทพมหานคร",
        "district": "จอมทอง"
      },
      "geometry": {
        "type": "Point",
        "coordinates": [
          100.4453018,
          13.6955177
        ]
      }
    },
    {
      "type": "Feature",
      "id": "a36",
      "properties": {
        "zip": "10210",
        "province": "กรุงเทพมหานคร",
        "district": "ดอนเมือง"
      },
      "geometry": {
        "type": "Point",
        "coordinates": [
          100.6038701,
          13.9245384
        ]
      }
    },
    {
      "type": "Feature",
      "id": "a37",
      "properties": {
        "zip": "10400",
        "province": "กรุงเทพมหานคร",
        "district": "ราชเทวี"
      },
      "geometry": {
        "type": "Point",
        "coordinates": [
          100.5315687,
          13.7516381
        ]
      }
    },
    {
      "type": "Feature",
      "id": "a38",
      "properties": {
        "zip": "10230",
        "province": "กรุงเทพมหานคร",
        "district": "ลาดพร้าว"
      },
      "geometry": {
        "type": "Point",
        "coordinates": [
          100.5943624,
          13.8289265
        ]
      }
    },
    {
      "type": "Feature",
      "id": "a39",
      "properties": {
        "zip": "10110",
        "province": "กรุงเทพมหานคร",
        "district": "วัฒนา"
      },
      "geometry": {
        "type": "Point",
        "coordinates": [
          100.5594458,
          13.7398583
        ]
      }
    },
    {
      "type": "Feature",
      "id": "a40",
      "properties": {
        "zip": "10160",
        "province": "กรุงเทพมหานคร",
        "district": "บางแค"
      },
      "geometry": {
        "type": "Point",
        "coordinates": [
          100.4210604,
          13.6988894
        ]
      }
    },
    {
      "type": "Feature",
      "id": "a41",
      "properties": {
        "zip": "10210",
        "province": "กรุงเทพมหานคร",
        "district": "หลักสี่"
      },
      "geometry": {
        "type": "Point",
        "coordinates": [
          100.5774799,
          13.8841935
        ]
      }
    },
    {
      "type": "Feature",
      "id": "a42",
      "properties": {
        "zip": "10220",
        "province": "กรุงเทพมหานคร",
        "district": "สายไหม"
      },
      "geometry": {
        "type": "Point",
        "coordinates": [
          100.683202,
          13.9213159
        ]
      }
    },
    {
      "type": "Feature",
      "id": "a43",
      "properties": {
        "zip": "10230",
        "province": "กรุงเทพมหานคร",
        "district": "คันนายาว"
      },
      "geometry": {
        "type": "Point",
        "coordinates": [
          100.692192,
          13.793899
        ]
      }
    },
    {
      "type": "Feature",
      "id": "a44",
      "properties": {
        "zip": "10240",
        "province": "กรุงเทพมหานคร",
        "district": "สะพานสูง"
      },
      "geometry": {
        "type": "Point",
        "coordinates": [
          100.6928804,
          13.7676357
        ]
      }
    },
    {
      "type": "Feature",
      "id": "a45",
      "properties": {
        "zip": "10310",
        "province": "กรุงเทพมหานคร",
        "district": "วังทองหลาง"
      },
      "geometry": {
        "type": "Point",
        "coordinates": [
          100.5999507,
          13.7802488
        ]
      }
    },
    {
      "type": "Feature",
      "id": "a46",
      "properties": {
        "zip": "10510",
        "province": "กรุงเทพมหานคร",
        "district": "คลองสามวา"
      },
      "geometry": {
        "type": "Point",
        "coordinates": [
          100.7295908,
          13.8381942
        ]
      }
    },
    {
      "type": "Feature",
      "id": "a47",
      "properties": {
        "zip": "10260",
        "province": "กรุงเทพมหานคร",
        "district": "บางนา"
      },
      "geometry": {
        "type": "Point",
        "coordinates": [
          100.6048034,
          13.6682906
        ]
      }
    },
    {
      "type": "Feature",
      "id": "a48",
      "properties": {
        "zip": "10170",
        "province": "กรุงเทพมหานคร",
        "district": "ทวีวัฒนา"
      },
      "geometry": {
        "type": "Point",
        "coordinates": [
          100.3343991,
          13.7648929
        ]
      }
    },
    {
      "type": "Feature",
      "id": "a49",
      "properties": {
        "zip": "10140",
        "province": "กรุงเทพมหานคร",
        "district": "ทุ่งครุ"
      },
      "geometry": {
        "type": "Point",
        "coordinates": [
          100.5103542,
          13.6191708
        ]
      }
    },
    {
      "type": "Feature",
      "id": "a50",
      "properties": {
        "zip": "10150",
        "province": "กรุงเทพมหานคร",
        "district": "บางบอน"
      },
      "geometry": {
        "type": "Point",
        "coordinates": [
          100.4036861,
          13.6670215
        ]
      }
    },
    {
      "type": "Feature",
      "id": "a51",
      "properties": {
        "zip": "10270",
        "province": "สมุทรปราการ",
        "district": "เมืองสมุทรปราการ"
      },
      "geometry": {
        "type": "Point",
        "coordinates": [
          100.5992148,
          13.6213747
        ]
      }
    },
    {
      "type": "Feature",
      "id": "a52",
      "properties": {
        "zip": "10280",
        "province": "สมุทรปราการ",
        "district": "เมืองสมุทรปราการ"
      },
      "geometry": {
        "type": "Point",
        "coordinates": [
          100.646241,
          13.5748422
        ]
      }
    },
    {
      "type": "Feature",
      "id": "a53",
      "properties": {
        "zip": "10560",
        "province": "สมุทรปราการ",
        "district": "บางบ่อ"
      },
      "geometry": {
        "type": "Point",
        "coordinates": [
          100.8677256,
          13.6058169
        ]
      }
    },
    {
      "type": "Feature",
      "id": "a54",
      "properties": {
        "zip": "10550",
        "province": "สมุทรปราการ",
        "district": "บางบ่อ"
      },
      "geometry": {
        "type": "Point",
        "coordinates": [
          100.8338593,
          13.5046427
        ]
      }
    },
    {
      "type": "Feature",
      "id": "a55",
      "properties": {
        "zip": "10540",
        "province": "สมุทรปราการ",
        "district": "บางพลี"
      },
      "geometry": {
        "type": "Point",
        "coordinates": [
          100.6400175,
          13.6299818
        ]
      }
    },
    {
      "type": "Feature",
      "id": "a56",
      "properties": {
        "zip": "10130",
        "province": "สมุทรปราการ",
        "district": "พระประแดง"
      },
      "geometry": {
        "type": "Point",
        "coordinates": [
          100.5633676,
          13.6532561
        ]
      }
    },
    {
      "type": "Feature",
      "id": "a57",
      "properties": {
        "zip": "10290",
        "province": "สมุทรปราการ",
        "district": "พระสมุทรเจดีย์"
      },
      "geometry": {
        "type": "Point",
        "coordinates": [
          100.5521142,
          13.5737973
        ]
      }
    },
    {
      "type": "Feature",
      "id": "a58",
      "properties": {
        "zip": "10540",
        "province": "สมุทรปราการ",
        "district": "บางเสาธง"
      },
      "geometry": {
        "type": "Point",
        "coordinates": [
          100.8282161,
          13.6132538
        ]
      }
    },
    {
      "type": "Feature",
      "id": "a59",
      "properties": {
        "zip": "11000",
        "province": "นนทบุรี",
        "district": "เมืองนนทบุรี"
      },
      "geometry": {
        "type": "Point",
        "coordinates": [
          100.4941285,
          13.8658492
        ]
      }
    },
    {
      "type": "Feature",
      "id": "a60",
      "properties": {
        "zip": "11130",
        "province": "นนทบุรี",
        "district": "บางกรวย"
      },
      "geometry": {
        "type": "Point",
        "coordinates": [
          100.4624937,
          13.8068972
        ]
      }
    },
    {
      "type": "Feature",
      "id": "a61",
      "properties": {
        "zip": "11140",
        "province": "นนทบุรี",
        "district": "บางใหญ่"
      },
      "geometry": {
        "type": "Point",
        "coordinates": [
          100.3806992,
          13.8445656
        ]
      }
    },
    {
      "type": "Feature",
      "id": "a62",
      "properties": {
        "zip": "11110",
        "province": "นนทบุรี",
        "district": "บางบัวทอง"
      },
      "geometry": {
        "type": "Point",
        "coordinates": [
          100.4308137,
          13.9446573
        ]
      }
    },
    {
      "type": "Feature",
      "id": "a63",
      "properties": {
        "zip": "11150",
        "province": "นนทบุรี",
        "district": "ไทรน้อย"
      },
      "geometry": {
        "type": "Point",
        "coordinates": [
          100.3385624,
          13.9832139
        ]
      }
    },
    {
      "type": "Feature",
      "id": "a64",
      "properties": {
        "zip": "11120",
        "province": "นนทบุรี",
        "district": "ปากเกร็ด"
      },
      "geometry": {
        "type": "Point",
        "coordinates": [
          100.4948197,
          13.9154022
        ]
      }
    },
    {
      "type": "Feature",
      "id": "a65",
      "properties": {
        "zip": "12000",
        "province": "ปทุมธานี",
        "district": "เมืองปทุมธานี"
      },
      "geometry": {
        "type": "Point",
        "coordinates": [
          100.5521142,
          13.9854373
        ]
      }
    },
    {
      "type": "Feature",
      "id": "a66",
      "properties": {
        "zip": "12120",
        "province": "ปทุมธานี",
        "district": "คลองหลวง"
      },
      "geometry": {
        "type": "Point",
        "coordinates": [
          100.6179542,
          14.0044429
        ]
      }
    },
    {
      "type": "Feature",
      "id": "a67",
      "properties": {
        "zip": "12130",
        "province": "ปทุมธานี",
        "district": "ธัญบุรี"
      },
      "geometry": {
        "type": "Point",
        "coordinates": [
          100.6309169,
          13.970533
        ]
      }
    },
    {
      "type": "Feature",
      "id": "a68",
      "properties": {
        "zip": "12110",
        "province": "ปทุมธานี",
        "district": "ธัญบุรี"
      },
      "geometry": {
        "type": "Point",
        "coordinates": [
          100.8273123,
          14.0542117
        ]
      }
    },
    {
      "type": "Feature",
      "id": "a69",
      "properties": {
        "zip": "12170",
        "province": "ปทุมธานี",
        "district": "หนองเสือ"
      },
      "geometry": {
        "type": "Point",
        "coordinates": [
          100.8451467,
          14.1785783
        ]
      }
    },
    {
      "type": "Feature",
      "id": "a70",
      "properties": {
        "zip": "12140",
        "province": "ปทุมธานี",
        "district": "ลาดหลุมแก้ว"
      },
      "geometry": {
        "type": "Point",
        "coordinates": [
          100.4059456,
          14.0032361
        ]
      }
    },
    {
      "type": "Feature",
      "id": "a71",
      "properties": {
        "zip": "12130",
        "province": "ปทุมธานี",
        "district": "ลำลูกกา"
      },
      "geometry": {
        "type": "Point",
        "coordinates": [
          100.6309169,
          13.970533
        ]
      }
    },
    {
      "type": "Feature",
      "id": "a72",
      "properties": {
        "zip": "12150",
        "province": "ปทุมธานี",
        "district": "ลำลูกกา"
      },
      "geometry": {
        "type": "Point",
        "coordinates": [
          100.7235473,
          13.9290033
        ]
      }
    },
    {
      "type": "Feature",
      "id": "a73",
      "properties": {
        "zip": "12160",
        "province": "ปทุมธานี",
        "district": "สามโคก"
      },
      "geometry": {
        "type": "Point",
        "coordinates": [
          100.5208569,
          14.0758882
        ]
      }
    },
    {
      "type": "Feature",
      "id": "a74",
      "properties": {
        "zip": "13000",
        "province": "พระนครศรีอยุธยา",
        "district": "พระนครศรีอยุธยา"
      },
      "geometry": {
        "type": "Point",
        "coordinates": [
          100.5521142,
          14.3523939
        ]
      }
    },
    {
      "type": "Feature",
      "id": "a75",
      "properties": {
        "zip": "13130",
        "province": "พระนครศรีอยุธยา",
        "district": "ท่าเรือ"
      },
      "geometry": {
        "type": "Point",
        "coordinates": [
          100.7238776,
          14.5599975
        ]
      }
    },
    {
      "type": "Feature",
      "id": "a76",
      "properties": {
        "zip": "13260",
        "province": "พระนครศรีอยุธยา",
        "district": "นครหลวง"
      },
      "geometry": {
        "type": "Point",
        "coordinates": [
          100.6241192,
          14.4759803
        ]
      }
    },
    {
      "type": "Feature",
      "id": "a77",
      "properties": {
        "zip": "13190",
        "province": "พระนครศรีอยุธยา",
        "district": "บางไทร"
      },
      "geometry": {
        "type": "Point",
        "coordinates": [
          100.4621366,
          14.2186448
        ]
      }
    },
    {
      "type": "Feature",
      "id": "a78",
      "properties": {
        "zip": "13290",
        "province": "พระนครศรีอยุธยา",
        "district": "บางไทร"
      },
      "geometry": {
        "type": "Point",
        "coordinates": [
          100.5408622,
          14.1348926
        ]
      }
    },
    {
      "type": "Feature",
      "id": "a79",
      "properties": {
        "zip": "13250",
        "province": "พระนครศรีอยุธยา",
        "district": "บางบาล"
      },
      "geometry": {
        "type": "Point",
        "coordinates": [
          100.4621366,
          14.4023507
        ]
      }
    },
    {
      "type": "Feature",
      "id": "a80",
      "properties": {
        "zip": "13160",
        "province": "พระนครศรีอยุธยา",
        "district": "บางปะอิน"
      },
      "geometry": {
        "type": "Point",
        "coordinates": [
          100.6045199,
          14.2121868
        ]
      }
    },
    {
      "type": "Feature",
      "id": "a81",
      "properties": {
        "zip": "13180",
        "province": "พระนครศรีอยุธยา",
        "district": "บางปะอิน"
      },
      "geometry": {
        "type": "Point",
        "coordinates": [
          100.5858786,
          14.1558336
        ]
      }
    },
    {
      "type": "Feature",
      "id": "a82",
      "properties": {
        "zip": "13170",
        "province": "พระนครศรีอยุธยา",
        "district": "บางปะอิน"
      },
      "geometry": {
        "type": "Point",
        "coordinates": [
          100.6045199,
          14.2121868
        ]
      }
    },
    {
      "type": "Feature",
      "id": "a83",
      "properties": {
        "zip": "13220",
        "province": "พระนครศรีอยุธยา",
        "district": "บางปะหัน"
      },
      "geometry": {
        "type": "Point",
        "coordinates": [
          100.5408622,
          14.4792629
        ]
      }
    },
    {
      "type": "Feature",
      "id": "a84",
      "properties": {
        "zip": "13120",
        "province": "พระนครศรีอยุธยา",
        "district": "ผักไห่"
      },
      "geometry": {
        "type": "Point",
        "coordinates": [
          100.383479,
          14.4403155
        ]
      }
    },
    {
      "type": "Feature",
      "id": "a85",
      "properties": {
        "zip": "13280",
        "province": "พระนครศรีอยุธยา",
        "district": "ผักไห่"
      },
      "geometry": {
        "type": "Point",
        "coordinates": [
          100.2824483,
          14.4562626
        ]
      }
    },
    {
      "type": "Feature",
      "id": "a86",
      "properties": {
        "zip": "13140",
        "province": "พระนครศรีอยุธยา",
        "district": "ภาชี"
      },
      "geometry": {
        "type": "Point",
        "coordinates": [
          100.724572,
          14.4477589
        ]
      }
    },
    {
      "type": "Feature",
      "id": "a87",
      "properties": {
        "zip": "13230",
        "province": "พระนครศรีอยุธยา",
        "district": "ลาดบัวหลวง"
      },
      "geometry": {
        "type": "Point",
        "coordinates": [
          100.3722477,
          14.1766793
        ]
      }
    },
    {
      "type": "Feature",
      "id": "a88",
      "properties": {
        "zip": "13170",
        "province": "พระนครศรีอยุธยา",
        "district": "วังน้อย"
      },
      "geometry": {
        "type": "Point",
        "coordinates": [
          100.7272992,
          14.2262517
        ]
      }
    },
    {
      "type": "Feature",
      "id": "a89",
      "properties": {
        "zip": "13110",
        "province": "พระนครศรีอยุธยา",
        "district": "เสนา"
      },
      "geometry": {
        "type": "Point",
        "coordinates": [
          100.3722477,
          14.3144265
        ]
      }
    },
    {
      "type": "Feature",
      "id": "a90",
      "properties": {
        "zip": "13270",
        "province": "พระนครศรีอยุธยา",
        "district": "บางซ้าย"
      },
      "geometry": {
        "type": "Point",
        "coordinates": [
          100.314818,
          14.371666
        ]
      }
    },
    {
      "type": "Feature",
      "id": "a91",
      "properties": {
        "zip": "13210",
        "province": "พระนครศรีอยุธยา",
        "district": "อุทัย"
      },
      "geometry": {
        "type": "Point",
        "coordinates": [
          100.6685901,
          14.3618606
        ]
      }
    },
    {
      "type": "Feature",
      "id": "a92",
      "properties": {
        "zip": "13150",
        "province": "พระนครศรีอยุธยา",
        "district": "มหาราช"
      },
      "geometry": {
        "type": "Point",
        "coordinates": [
          100.5521142,
          14.5822246
        ]
      }
    },
    {
      "type": "Feature",
      "id": "a93",
      "properties": {
        "zip": "13240",
        "province": "พระนครศรีอยุธยา",
        "district": "บ้านแพรก"
      },
      "geometry": {
        "type": "Point",
        "coordinates": [
          100.5770655,
          14.6456948
        ]
      }
    },
    {
      "type": "Feature",
      "id": "a94",
      "properties": {
        "zip": "14000",
        "province": "อ่างทอง",
        "district": "เมืองอ่างทอง"
      },
      "geometry": {
        "type": "Point",
        "coordinates": [
          100.4550554,
          14.5895914
        ]
      }
    },
    {
      "type": "Feature",
      "id": "a95",
      "properties": {
        "zip": "14140",
        "province": "อ่างทอง",
        "district": "ไชโย"
      },
      "geometry": {
        "type": "Point",
        "coordinates": [
          100.4358163,
          14.7147825
        ]
      }
    },
    {
      "type": "Feature",
      "id": "a96",
      "properties": {
        "zip": "14130",
        "province": "อ่างทอง",
        "district": "ป่าโมก"
      },
      "geometry": {
        "type": "Point",
        "coordinates": [
          100.4424658,
          14.4980456
        ]
      }
    },
    {
      "type": "Feature",
      "id": "a97",
      "properties": {
        "zip": "14120",
        "province": "อ่างทอง",
        "district": "โพธิ์ทอง"
      },
      "geometry": {
        "type": "Point",
        "coordinates": [
          100.3722477,
          14.6823992
        ]
      }
    },
    {
      "type": "Feature",
      "id": "a98",
      "properties": {
        "zip": "14150",
        "province": "อ่างทอง",
        "district": "แสวงหา"
      },
      "geometry": {
        "type": "Point",
        "coordinates": [
          100.310501,
          14.7600313
        ]
      }
    },
    {
      "type": "Feature",
      "id": "a99",
      "properties": {
        "zip": "14110",
        "province": "อ่างทอง",
        "district": "วิเศษชัยชาญ"
      },
      "geometry": {
        "type": "Point",
        "coordinates": [
          100.3273368,
          14.5462949
        ]
      }
    },
    {
      "type": "Feature",
      "id": "a100",
      "properties": {
        "zip": "14160",
        "province": "อ่างทอง",
        "district": "สามโก้"
      },
      "geometry": {
        "type": "Point",
        "coordinates": [
          100.2544044,
          14.6013032
        ]
      }
    },
    {
      "type": "Feature",
      "id": "a101",
      "properties": {
        "zip": "15000",
        "province": "ลพบุรี",
        "district": "เมืองลพบุรี"
      },
      "geometry": {
        "type": "Point",
        "coordinates": [
          100.6343005,
          14.7996306
        ]
      }
    },
    {
      "type": "Feature",
      "id": "a102",
      "properties": {
        "zip": "13240",
        "province": "ลพบุรี",
        "district": "เมืองลพบุรี"
      },
      "geometry": {
        "type": "Point",
        "coordinates": [
          100.6101263,
          14.8034968
        ]
      }
    },
    {
      "type": "Feature",
      "id": "a103",
      "properties": {
        "zip": "15160",
        "province": "ลพบุรี",
        "district": "เมืองลพบุรี"
      },
      "geometry": {
        "type": "Point",
        "coordinates": [
          100.6872457,
          14.8982903
        ]
      }
    },
    {
      "type": "Feature",
      "id": "a104",
      "properties": {
        "zip": "15210",
        "province": "ลพบุรี",
        "district": "เมืองลพบุรี"
      },
      "geometry": {
        "type": "Point",
        "coordinates": [
          100.8225732,
          14.845847
        ]
      }
    },
    {
      "type": "Feature",
      "id": "a105",
      "properties": {
        "zip": "15140",
        "province": "ลพบุรี",
        "district": "พัฒนานิคม"
      },
      "geometry": {
        "type": "Point",
        "coordinates": [
          100.9668767,
          14.8889139
        ]
      }
    },
    {
      "type": "Feature",
      "id": "a106",
      "properties": {
        "zip": "15220",
        "province": "ลพบุรี",
        "district": "พัฒนานิคม"
      },
      "geometry": {
        "type": "Point",
        "coordinates": [
          100.9128995,
          14.7955207
        ]
      }
    },
    {
      "type": "Feature",
      "id": "a107",
      "properties": {
        "zip": "18220",
        "province": "ลพบุรี",
        "district": "พัฒนานิคม"
      },
      "geometry": {
        "type": "Point",
        "coordinates": [
          101.1734451,
          14.9593421
        ]
      }
    },
    {
      "type": "Feature",
      "id": "a108",
      "properties": {
        "zip": "15120",
        "province": "ลพบุรี",
        "district": "โคกสำโรง"
      },
      "geometry": {
        "type": "Point",
        "coordinates": [
          100.7217139,
          15.067666
        ]
      }
    },
    {
      "type": "Feature",
      "id": "a109",
      "properties": {
        "zip": "15130",
        "province": "ลพบุรี",
        "district": "ชัยบาดาล"
      },
      "geometry": {
        "type": "Point",
        "coordinates": [
          101.136733,
          15.2074763
        ]
      }
    },
    {
      "type": "Feature",
      "id": "a110",
      "properties": {
        "zip": "15230",
        "province": "ลพบุรี",
        "district": "ชัยบาดาล"
      },
      "geometry": {
        "type": "Point",
        "coordinates": [
          101.1390878,
          15.0608556
        ]
      }
    },
    {
      "type": "Feature",
      "id": "a111",
      "properties": {
        "zip": "15190",
        "province": "ลพบุรี",
        "district": "ชัยบาดาล"
      },
      "geometry": {
        "type": "Point",
        "coordinates": [
          101.3317605,
          15.3854608
        ]
      }
    },
    {
      "type": "Feature",
      "id": "a112",
      "properties": {
        "zip": "15150",
        "province": "ลพบุรี",
        "district": "ท่าวุ้ง"
      },
      "geometry": {
        "type": "Point",
        "coordinates": [
          100.5071143,
          14.8144809
        ]
      }
    },
    {
      "type": "Feature",
      "id": "a113",
      "properties": {
        "zip": "15180",
        "province": "ลพบุรี",
        "district": "ท่าวุ้ง"
      },
      "geometry": {
        "type": "Point",
        "coordinates": [
          100.5104749,
          14.81464
        ]
      }
    },
    {
      "type": "Feature",
      "id": "a114",
      "properties": {
        "zip": "15110",
        "province": "ลพบุรี",
        "district": "บ้านหมี่"
      },
      "geometry": {
        "type": "Point",
        "coordinates": [
          100.5521142,
          15.089097
        ]
      }
    },
    {
      "type": "Feature",
      "id": "a115",
      "properties": {
        "zip": "15180",
        "province": "ลพบุรี",
        "district": "บ้านหมี่"
      },
      "geometry": {
        "type": "Point",
        "coordinates": [
          100.4691229,
          14.9806968
        ]
      }
    },
    {
      "type": "Feature",
      "id": "a116",
      "properties": {
        "zip": "15230",
        "province": "ลพบุรี",
        "district": "ท่าหลวง"
      },
      "geometry": {
        "type": "Point",
        "coordinates": [
          101.1504111,
          15.071815
        ]
      }
    },
    {
      "type": "Feature",
      "id": "a117",
      "properties": {
        "zip": "15240",
        "province": "ลพบุรี",
        "district": "สระโบสถ์"
      },
      "geometry": {
        "type": "Point",
        "coordinates": [
          100.8564355,
          15.2245864
        ]
      }
    },
    {
      "type": "Feature",
      "id": "a118",
      "properties": {
        "zip": "15250",
        "province": "ลพบุรี",
        "district": "โคกเจริญ"
      },
      "geometry": {
        "type": "Point",
        "coordinates": [
          100.7754207,
          15.3944421
        ]
      }
    },
    {
      "type": "Feature",
      "id": "a119",
      "properties": {
        "zip": "15190",
        "province": "ลพบุรี",
        "district": "ลำสนธิ"
      },
      "geometry": {
        "type": "Point",
        "coordinates": [
          101.3317605,
          15.3854608
        ]
      }
    },
    {
      "type": "Feature",
      "id": "a120",
      "properties": {
        "zip": "15130",
        "province": "ลพบุรี",
        "district": "ลำสนธิ"
      },
      "geometry": {
        "type": "Point",
        "coordinates": [
          101.3544525,
          15.3842964
        ]
      }
    },
    {
      "type": "Feature",
      "id": "a121",
      "properties": {
        "zip": "15170",
        "province": "ลพบุรี",
        "district": "หนองม่วง"
      },
      "geometry": {
        "type": "Point",
        "coordinates": [
          100.6600016,
          15.2256001
        ]
      }
    },
    {
      "type": "Feature",
      "id": "a122",
      "properties": {
        "zip": "16000",
        "province": "สิงห์บุรี",
        "district": "เมืองสิงห์บุรี"
      },
      "geometry": {
        "type": "Point",
        "coordinates": [
          100.4059456,
          14.8997786
        ]
      }
    },
    {
      "type": "Feature",
      "id": "a123",
      "properties": {
        "zip": "16130",
        "province": "สิงห์บุรี",
        "district": "บางระจัน"
      },
      "geometry": {
        "type": "Point",
        "coordinates": [
          100.2824483,
          14.9169141
        ]
      }
    },
    {
      "type": "Feature",
      "id": "a124",
      "properties": {
        "zip": "16150",
        "province": "สิงห์บุรี",
        "district": "ค่ายบางระจัน"
      },
      "geometry": {
        "type": "Point",
        "coordinates": [
          100.2936683,
          14.8126417
        ]
      }
    },
    {
      "type": "Feature",
      "id": "a125",
      "properties": {
        "zip": "16120",
        "province": "สิงห์บุรี",
        "district": "พรหมบุรี"
      },
      "geometry": {
        "type": "Point",
        "coordinates": [
          100.4508956,
          14.7824909
        ]
      }
    },
    {
      "type": "Feature",
      "id": "a126",
      "properties": {
        "zip": "16160",
        "province": "สิงห์บุรี",
        "district": "พรหมบุรี"
      },
      "geometry": {
        "type": "Point",
        "coordinates": [
          100.4394358,
          14.8223351
        ]
      }
    },
    {
      "type": "Feature",
      "id": "a127",
      "properties": {
        "zip": "16140",
        "province": "สิงห์บุรี",
        "district": "ท่าช้าง"
      },
      "geometry": {
        "type": "Point",
        "coordinates": [
          100.3891641,
          14.7794841
        ]
      }
    },
    {
      "type": "Feature",
      "id": "a128",
      "properties": {
        "zip": "16110",
        "province": "สิงห์บุรี",
        "district": "อินทร์บุรี"
      },
      "geometry": {
        "type": "Point",
        "coordinates": [
          100.3329494,
          15.0011448
        ]
      }
    },
    {
      "type": "Feature",
      "id": "a129",
      "properties": {
        "zip": "17000",
        "province": "ชัยนาท",
        "district": "เมืองชัยนาท"
      },
      "geometry": {
        "type": "Point",
        "coordinates": [
          100.1423172,
          15.1252422
        ]
      }
    },
    {
      "type": "Feature",
      "id": "a130",
      "properties": {
        "zip": "17110",
        "province": "ชัยนาท",
        "district": "มโนรมย์"
      },
      "geometry": {
        "type": "Point",
        "coordinates": [
          100.1479182,
          15.3388555
        ]
      }
    },
    {
      "type": "Feature",
      "id": "a131",
      "properties": {
        "zip": "17170",
        "province": "ชัยนาท",
        "district": "มโนรมย์"
      },
      "geometry": {
        "type": "Point",
        "coordinates": [
          100.2039477,
          15.3015956
        ]
      }
    },
    {
      "type": "Feature",
      "id": "a132",
      "properties": {
        "zip": "17120",
        "province": "ชัยนาท",
        "district": "วัดสิงห์"
      },
      "geometry": {
        "type": "Point",
        "coordinates": [
          100.0431355,
          15.2617924
        ]
      }
    },
    {
      "type": "Feature",
      "id": "a133",
      "properties": {
        "zip": "17150",
        "province": "ชัยนาท",
        "district": "สรรพยา"
      },
      "geometry": {
        "type": "Point",
        "coordinates": [
          100.2319757,
          15.1327349
        ]
      }
    },
    {
      "type": "Feature",
      "id": "a134",
      "properties": {
        "zip": "17140",
        "province": "ชัยนาท",
        "district": "สรรคบุรี"
      },
      "geometry": {
        "type": "Point",
        "coordinates": [
          100.1479182,
          15.0152766
        ]
      }
    },
    {
      "type": "Feature",
      "id": "a135",
      "properties": {
        "zip": "17130",
        "province": "ชัยนาท",
        "district": "หันคา"
      },
      "geometry": {
        "type": "Point",
        "coordinates": [
          100.0024084,
          15.0101985
        ]
      }
    },
    {
      "type": "Feature",
      "id": "a136",
      "properties": {
        "zip": "17160",
        "province": "ชัยนาท",
        "district": "หันคา"
      },
      "geometry": {
        "type": "Point",
        "coordinates": [
          100.0135929,
          15.1136716
        ]
      }
    },
    {
      "type": "Feature",
      "id": "a137",
      "properties": {
        "zip": "17120",
        "province": "ชัยนาท",
        "district": "หนองมะโมง"
      },
      "geometry": {
        "type": "Point",
        "coordinates": [
          99.7790227,
          15.2049356
        ]
      }
    },
    {
      "type": "Feature",
      "id": "a138",
      "properties": {
        "zip": "17130",
        "province": "ชัยนาท",
        "district": "เนินขาม"
      },
      "geometry": {
        "type": "Point",
        "coordinates": [
          99.9129845,
          14.9679283
        ]
      }
    },
    {
      "type": "Feature",
      "id": "a139",
      "properties": {
        "zip": "18000",
        "province": "สระบุรี",
        "district": "เมืองสระบุรี"
      },
      "geometry": {
        "type": "Point",
        "coordinates": [
          100.9101032,
          14.5288823
        ]
      }
    },
    {
      "type": "Feature",
      "id": "a140",
      "properties": {
        "zip": "18110",
        "province": "สระบุรี",
        "district": "แก่งคอย"
      },
      "geometry": {
        "type": "Point",
        "coordinates": [
          101.003522,
          14.5801157
        ]
      }
    },
    {
      "type": "Feature",
      "id": "a141",
      "properties": {
        "zip": "18260",
        "province": "สระบุรี",
        "district": "แก่งคอย"
      },
      "geometry": {
        "type": "Point",
        "coordinates": [
          101.0938079,
          14.6029483
        ]
      }
    },
    {
      "type": "Feature",
      "id": "a142",
      "properties": {
        "zip": "18140",
        "province": "สระบุรี",
        "district": "หนองแค"
      },
      "geometry": {
        "type": "Point",
        "coordinates": [
          100.8677256,
          14.3380654
        ]
      }
    },
    {
      "type": "Feature",
      "id": "a143",
      "properties": {
        "zip": "18250",
        "province": "สระบุรี",
        "district": "หนองแค"
      },
      "geometry": {
        "type": "Point",
        "coordinates": [
          100.8056466,
          14.4155173
        ]
      }
    },
    {
      "type": "Feature",
      "id": "a144",
      "properties": {
        "zip": "18230",
        "province": "สระบุรี",
        "district": "หนองแค"
      },
      "geometry": {
        "type": "Point",
        "coordinates": [
          100.901604,
          14.4168204
        ]
      }
    },
    {
      "type": "Feature",
      "id": "a145",
      "properties": {
        "zip": "18150",
        "province": "สระบุรี",
        "district": "วิหารแดง"
      },
      "geometry": {
        "type": "Point",
        "coordinates": [
          100.9863525,
          14.3153708
        ]
      }
    },
    {
      "type": "Feature",
      "id": "a146",
      "properties": {
        "zip": "18170",
        "province": "สระบุรี",
        "district": "หนองแซง"
      },
      "geometry": {
        "type": "Point",
        "coordinates": [
          100.8112885,
          14.4898955
        ]
      }
    },
    {
      "type": "Feature",
      "id": "a147",
      "properties": {
        "zip": "18130",
        "province": "สระบุรี",
        "district": "บ้านหมอ"
      },
      "geometry": {
        "type": "Point",
        "coordinates": [
          100.7154228,
          14.614994
        ]
      }
    },
    {
      "type": "Feature",
      "id": "a148",
      "properties": {
        "zip": "18270",
        "province": "สระบุรี",
        "district": "บ้านหมอ"
      },
      "geometry": {
        "type": "Point",
        "coordinates": [
          100.800698,
          14.6006738
        ]
      }
    },
    {
      "type": "Feature",
      "id": "a149",
      "properties": {
        "zip": "18210",
        "province": "สระบุรี",
        "district": "ดอนพุด"
      },
      "geometry": {
        "type": "Point",
        "coordinates": [
          100.6252859,
          14.5961403
        ]
      }
    },
    {
      "type": "Feature",
      "id": "a150",
      "properties": {
        "zip": "18190",
        "province": "สระบุรี",
        "district": "หนองโดน"
      },
      "geometry": {
        "type": "Point",
        "coordinates": [
          100.6985155,
          14.6790319
        ]
      }
    },
    {
      "type": "Feature",
      "id": "a151",
      "properties": {
        "zip": "18120",
        "province": "สระบุรี",
        "district": "พระพุทธบาท"
      },
      "geometry": {
        "type": "Point",
        "coordinates": [
          100.7830826,
          14.7268634
        ]
      }
    },
    {
      "type": "Feature",
      "id": "a152",
      "properties": {
        "zip": "18160",
        "province": "สระบุรี",
        "district": "เสาไห้"
      },
      "geometry": {
        "type": "Point",
        "coordinates": [
          100.8536132,
          14.5367501
        ]
      }
    },
    {
      "type": "Feature",
      "id": "a153",
      "properties": {
        "zip": "18180",
        "province": "สระบุรี",
        "district": "มวกเหล็ก"
      },
      "geometry": {
        "type": "Point",
        "coordinates": [
          101.1843887,
          14.4608673
        ]
      }
    },
    {
      "type": "Feature",
      "id": "a154",
      "properties": {
        "zip": "30130",
        "province": "สระบุรี",
        "district": "มวกเหล็ก"
      },
      "geometry": {
        "type": "Point",
        "coordinates": [
          101.1927802,
          14.6359078
        ]
      }
    },
    {
      "type": "Feature",
      "id": "a155",
      "properties": {
        "zip": "18220",
        "province": "สระบุรี",
        "district": "มวกเหล็ก"
      },
      "geometry": {
        "type": "Point",
        "coordinates": [
          101.1390878,
          14.6926819
        ]
      }
    },
    {
      "type": "Feature",
      "id": "a156",
      "properties": {
        "zip": "18220",
        "province": "สระบุรี",
        "district": "วังม่วง"
      },
      "geometry": {
        "type": "Point",
        "coordinates": [
          101.1843887,
          14.874441
        ]
      }
    },
    {
      "type": "Feature",
      "id": "a157",
      "properties": {
        "zip": "18000",
        "province": "สระบุรี",
        "district": "เฉลิมพระเกียรติ"
      },
      "geometry": {
        "type": "Point",
        "coordinates": [
          100.9139619,
          14.5224885
        ]
      }
    },
    {
      "type": "Feature",
      "id": "a158",
      "properties": {
        "zip": "18240",
        "province": "สระบุรี",
        "district": "เฉลิมพระเกียรติ"
      },
      "geometry": {
        "type": "Point",
        "coordinates": [
          100.901604,
          14.6925337
        ]
      }
    },
    {
      "type": "Feature",
      "id": "a159",
      "properties": {
        "zip": "20000",
        "province": "ชลบุรี",
        "district": "เมืองชลบุรี"
      },
      "geometry": {
        "type": "Point",
        "coordinates": [
          101.0122861,
          13.3909924
        ]
      }
    },
    {
      "type": "Feature",
      "id": "a160",
      "properties": {
        "zip": "20130",
        "province": "ชลบุรี",
        "district": "เมืองชลบุรี"
      },
      "geometry": {
        "type": "Point",
        "coordinates": [
          100.941144,
          13.2665109
        ]
      }
    },
    {
      "type": "Feature",
      "id": "a161",
      "properties": {
        "zip": "20170",
        "province": "ชลบุรี",
        "district": "บ้านบึง"
      },
      "geometry": {
        "type": "Point",
        "coordinates": [
          101.1257083,
          13.3104674
        ]
      }
    },
    {
      "type": "Feature",
      "id": "a162",
      "properties": {
        "zip": "20220",
        "province": "ชลบุรี",
        "district": "บ้านบึง"
      },
      "geometry": {
        "type": "Point",
        "coordinates": [
          101.1843887,
          13.2274744
        ]
      }
    },
    {
      "type": "Feature",
      "id": "a163",
      "properties": {
        "zip": "20190",
        "province": "ชลบุรี",
        "district": "หนองใหญ่"
      },
      "geometry": {
        "type": "Point",
        "coordinates": [
          100.9111545,
          12.951029
        ]
      }
    },
    {
      "type": "Feature",
      "id": "a164",
      "properties": {
        "zip": "20150",
        "province": "ชลบุรี",
        "district": "บางละมุง"
      },
      "geometry": {
        "type": "Point",
        "coordinates": [
          101.0033112,
          12.9173831
        ]
      }
    },
    {
      "type": "Feature",
      "id": "a165",
      "properties": {
        "zip": "20160",
        "province": "ชลบุรี",
        "district": "พานทอง"
      },
      "geometry": {
        "type": "Point",
        "coordinates": [
          101.0878684,
          13.4743811
        ]
      }
    },
    {
      "type": "Feature",
      "id": "a166",
      "properties": {
        "zip": "20140",
        "province": "ชลบุรี",
        "district": "พนัสนิคม"
      },
      "geometry": {
        "type": "Point",
        "coordinates": [
          101.1815568,
          13.4522814
        ]
      }
    },
    {
      "type": "Feature",
      "id": "a167",
      "properties": {
        "zip": "20110",
        "province": "ชลบุรี",
        "district": "ศรีราชา"
      },
      "geometry": {
        "type": "Point",
        "coordinates": [
          100.9216588,
          13.1641308
        ]
      }
    },
    {
      "type": "Feature",
      "id": "a168",
      "properties": {
        "zip": "20230",
        "province": "ชลบุรี",
        "district": "ศรีราชา"
      },
      "geometry": {
        "type": "Point",
        "coordinates": [
          101.0163228,
          13.0799039
        ]
      }
    },
    {
      "type": "Feature",
      "id": "a169",
      "properties": {
        "zip": "20120",
        "province": "ชลบุรี",
        "district": "เกาะสีชัง"
      },
      "geometry": {
        "type": "Point",
        "coordinates": [
          100.8084675,
          13.1499153
        ]
      }
    },
    {
      "type": "Feature",
      "id": "a170",
      "properties": {
        "zip": "20180",
        "province": "ชลบุรี",
        "district": "สัตหีบ"
      },
      "geometry": {
        "type": "Point",
        "coordinates": [
          100.901604,
          12.6836578
        ]
      }
    },
    {
      "type": "Feature",
      "id": "a171",
      "properties": {
        "zip": "20250",
        "province": "ชลบุรี",
        "district": "สัตหีบ"
      },
      "geometry": {
        "type": "Point",
        "coordinates": [
          100.9241963,
          12.7733331
        ]
      }
    },
    {
      "type": "Feature",
      "id": "a172",
      "properties": {
        "zip": "20270",
        "province": "ชลบุรี",
        "district": "บ่อทอง"
      },
      "geometry": {
        "type": "Point",
        "coordinates": [
          101.4908333,
          13.1838889
        ]
      }
    },
    {
      "type": "Feature",
      "id": "a173",
      "properties": {
        "zip": "20240",
        "province": "ชลบุรี",
        "district": "เกาะจันทร์"
      },
      "geometry": {
        "type": "Point",
        "coordinates": [
          101.3199255,
          13.3912957
        ]
      }
    },
    {
      "type": "Feature",
      "id": "a174",
      "properties": {
        "zip": "21000",
        "province": "ระยอง",
        "district": "เมืองระยอง"
      },
      "geometry": {
        "type": "Point",
        "coordinates": [
          101.3658004,
          12.6754092
        ]
      }
    },
    {
      "type": "Feature",
      "id": "a175",
      "properties": {
        "zip": "21160",
        "province": "ระยอง",
        "district": "เมืองระยอง"
      },
      "geometry": {
        "type": "Point",
        "coordinates": [
          101.4452717,
          12.6606737
        ]
      }
    },
    {
      "type": "Feature",
      "id": "a176",
      "properties": {
        "zip": "21100",
        "province": "ระยอง",
        "district": "เมืองระยอง"
      },
      "geometry": {
        "type": "Point",
        "coordinates": [
          101.4566299,
          12.761952
        ]
      }
    },
    {
      "type": "Feature",
      "id": "a177",
      "properties": {
        "zip": "21150",
        "province": "ระยอง",
        "district": "เมืองระยอง"
      },
      "geometry": {
        "type": "Point",
        "coordinates": [
          101.171274,
          12.7050978
        ]
      }
    },
    {
      "type": "Feature",
      "id": "a178",
      "properties": {
        "zip": "21130",
        "province": "ระยอง",
        "district": "บ้านฉาง"
      },
      "geometry": {
        "type": "Point",
        "coordinates": [
          101.048549,
          12.7341552
        ]
      }
    },
    {
      "type": "Feature",
      "id": "a179",
      "properties": {
        "zip": "21110",
        "province": "ระยอง",
        "district": "แกลง"
      },
      "geometry": {
        "type": "Point",
        "coordinates": [
          101.6490959,
          12.7797397
        ]
      }
    },
    {
      "type": "Feature",
      "id": "a180",
      "properties": {
        "zip": "21190",
        "province": "ระยอง",
        "district": "แกลง"
      },
      "geometry": {
        "type": "Point",
        "coordinates": [
          101.5589105,
          12.6783299
        ]
      }
    },
    {
      "type": "Feature",
      "id": "a181",
      "properties": {
        "zip": "22160",
        "province": "ระยอง",
        "district": "แกลง"
      },
      "geometry": {
        "type": "Point",
        "coordinates": [
          101.6490959,
          12.7797397
        ]
      }
    },
    {
      "type": "Feature",
      "id": "a182",
      "properties": {
        "zip": "21170",
        "province": "ระยอง",
        "district": "แกลง"
      },
      "geometry": {
        "type": "Point",
        "coordinates": [
          101.7149678,
          12.7208265
        ]
      }
    },
    {
      "type": "Feature",
      "id": "a183",
      "properties": {
        "zip": "21210",
        "province": "ระยอง",
        "district": "วังจันทร์"
      },
      "geometry": {
        "type": "Point",
        "coordinates": [
          101.5198329,
          12.9310911
        ]
      }
    },
    {
      "type": "Feature",
      "id": "a184",
      "properties": {
        "zip": "21120",
        "province": "ระยอง",
        "district": "บ้านค่าย"
      },
      "geometry": {
        "type": "Point",
        "coordinates": [
          101.3034028,
          12.7855768
        ]
      }
    },
    {
      "type": "Feature",
      "id": "a185",
      "properties": {
        "zip": "21140",
        "province": "ระยอง",
        "district": "ปลวกแดง"
      },
      "geometry": {
        "type": "Point",
        "coordinates": [
          101.2163774,
          12.9707642
        ]
      }
    },
    {
      "type": "Feature",
      "id": "a186",
      "properties": {
        "zip": "21110",
        "province": "ระยอง",
        "district": "เขาชะเมา"
      },
      "geometry": {
        "type": "Point",
        "coordinates": [
          101.7383333,
          12.96
        ]
      }
    },
    {
      "type": "Feature",
      "id": "a187",
      "properties": {
        "zip": "21180",
        "province": "ระยอง",
        "district": "นิคมพัฒนา"
      },
      "geometry": {
        "type": "Point",
        "coordinates": [
          101.1730615,
          12.8308102
        ]
      }
    },
    {
      "type": "Feature",
      "id": "a188",
      "properties": {
        "zip": "22000",
        "province": "จันทบุรี",
        "district": "เมืองจันทบุรี"
      },
      "geometry": {
        "type": "Point",
        "coordinates": [
          102.1037806,
          12.6112485
        ]
      }
    },
    {
      "type": "Feature",
      "id": "a189",
      "properties": {
        "zip": "22110",
        "province": "จันทบุรี",
        "district": "ขลุง"
      },
      "geometry": {
        "type": "Point",
        "coordinates": [
          102.2290442,
          12.4537943
        ]
      }
    },
    {
      "type": "Feature",
      "id": "a190",
      "properties": {
        "zip": "22150",
        "province": "จันทบุรี",
        "district": "ขลุง"
      },
      "geometry": {
        "type": "Point",
        "coordinates": [
          102.3005803,
          12.746324
        ]
      }
    },
    {
      "type": "Feature",
      "id": "a191",
      "properties": {
        "zip": "22120",
        "province": "จันทบุรี",
        "district": "ท่าใหม่"
      },
      "geometry": {
        "type": "Point",
        "coordinates": [
          102.0032957,
          12.647214
        ]
      }
    },
    {
      "type": "Feature",
      "id": "a192",
      "properties": {
        "zip": "22170",
        "province": "จันทบุรี",
        "district": "ท่าใหม่"
      },
      "geometry": {
        "type": "Point",
        "coordinates": [
          101.9723228,
          12.7802959
        ]
      }
    },
    {
      "type": "Feature",
      "id": "a193",
      "properties": {
        "zip": "22140",
        "province": "จันทบุรี",
        "district": "โป่งน้ำร้อน"
      },
      "geometry": {
        "type": "Point",
        "coordinates": [
          102.4934904,
          12.9628371
        ]
      }
    },
    {
      "type": "Feature",
      "id": "a194",
      "properties": {
        "zip": "22150",
        "province": "จันทบุรี",
        "district": "มะขาม"
      },
      "geometry": {
        "type": "Point",
        "coordinates": [
          102.1969444,
          12.6575
        ]
      }
    },
    {
      "type": "Feature",
      "id": "a195",
      "properties": {
        "zip": "22130",
        "province": "จันทบุรี",
        "district": "แหลมสิงห์"
      },
      "geometry": {
        "type": "Point",
        "coordinates": [
          102.100396,
          12.4680818
        ]
      }
    },
    {
      "type": "Feature",
      "id": "a196",
      "properties": {
        "zip": "22190",
        "province": "จันทบุรี",
        "district": "แหลมสิงห์"
      },
      "geometry": {
        "type": "Point",
        "coordinates": [
          102.100396,
          12.4680818
        ]
      }
    },
    {
      "type": "Feature",
      "id": "a197",
      "properties": {
        "zip": "22120",
        "province": "จันทบุรี",
        "district": "แหลมสิงห์"
      },
      "geometry": {
        "type": "Point",
        "coordinates": [
          102.0516667,
          12.4797222
        ]
      }
    },
    {
      "type": "Feature",
      "id": "a198",
      "properties": {
        "zip": "22180",
        "province": "จันทบุรี",
        "district": "สอยดาว"
      },
      "geometry": {
        "type": "Point",
        "coordinates": [
          102.1555556,
          13.06
        ]
      }
    },
    {
      "type": "Feature",
      "id": "a199",
      "properties": {
        "zip": "22160",
        "province": "จันทบุรี",
        "district": "แก่งหางแมว"
      },
      "geometry": {
        "type": "Point",
        "coordinates": [
          101.9119871,
          12.9678205
        ]
      }
    },
    {
      "type": "Feature",
      "id": "a200",
      "properties": {
        "zip": "22160",
        "province": "จันทบุรี",
        "district": "นายายอาม"
      },
      "geometry": {
        "type": "Point",
        "coordinates": [
          101.8549588,
          12.7781601
        ]
      }
    },
    {
      "type": "Feature",
      "id": "a201",
      "properties": {
        "zip": "22170",
        "province": "จันทบุรี",
        "district": "นายายอาม"
      },
      "geometry": {
        "type": "Point",
        "coordinates": [
          101.8549588,
          12.7781601
        ]
      }
    },
    {
      "type": "Feature",
      "id": "a202",
      "properties": {
        "zip": "22210",
        "province": "จันทบุรี",
        "district": "เขาคิชฌกูฏ"
      },
      "geometry": {
        "type": "Point",
        "coordinates": [
          102.1697222,
          12.8497222
        ]
      }
    },
    {
      "type": "Feature",
      "id": "a203",
      "properties": {
        "zip": "23000",
        "province": "ตราด",
        "district": "เมืองตราด"
      },
      "geometry": {
        "type": "Point",
        "coordinates": [
          102.5174726,
          12.2427059
        ]
      }
    },
    {
      "type": "Feature",
      "id": "a204",
      "properties": {
        "zip": "23110",
        "province": "ตราด",
        "district": "คลองใหญ่"
      },
      "geometry": {
        "type": "Point",
        "coordinates": [
          102.8882438,
          11.7786113
        ]
      }
    },
    {
      "type": "Feature",
      "id": "a205",
      "properties": {
        "zip": "23130",
        "province": "ตราด",
        "district": "เขาสมิง"
      },
      "geometry": {
        "type": "Point",
        "coordinates": [
          102.4536111,
          12.345
        ]
      }
    },
    {
      "type": "Feature",
      "id": "a206",
      "properties": {
        "zip": "23150",
        "province": "ตราด",
        "district": "เขาสมิง"
      },
      "geometry": {
        "type": "Point",
        "coordinates": [
          102.4495221,
          12.3227921
        ]
      }
    },
    {
      "type": "Feature",
      "id": "a207",
      "properties": {
        "zip": "23140",
        "province": "ตราด",
        "district": "บ่อไร่"
      },
      "geometry": {
        "type": "Point",
        "coordinates": [
          102.5527505,
          12.5766509
        ]
      }
    },
    {
      "type": "Feature",
      "id": "a208",
      "properties": {
        "zip": "23120",
        "province": "ตราด",
        "district": "แหลมงอบ"
      },
      "geometry": {
        "type": "Point",
        "coordinates": [
          102.3996973,
          12.1783502
        ]
      }
    },
    {
      "type": "Feature",
      "id": "a209",
      "properties": {
        "zip": "23000",
        "province": "ตราด",
        "district": "เกาะกูด"
      },
      "geometry": {
        "type": "Point",
        "coordinates": [
          102.5642261,
          11.6680759
        ]
      }
    },
    {
      "type": "Feature",
      "id": "a210",
      "properties": {
        "zip": "23170",
        "province": "ตราด",
        "district": "เกาะช้าง"
      },
      "geometry": {
        "type": "Point",
        "coordinates": [
          102.3234816,
          12.0479159
        ]
      }
    },
    {
      "type": "Feature",
      "id": "a211",
      "properties": {
        "zip": "24000",
        "province": "ฉะเชิงเทรา",
        "district": "เมืองฉะเชิงเทรา"
      },
      "geometry": {
        "type": "Point",
        "coordinates": [
          101.0717963,
          13.6592703
        ]
      }
    },
    {
      "type": "Feature",
      "id": "a212",
      "properties": {
        "zip": "24110",
        "province": "ฉะเชิงเทรา",
        "district": "บางคล้า"
      },
      "geometry": {
        "type": "Point",
        "coordinates": [
          101.2066116,
          13.723331
        ]
      }
    },
    {
      "type": "Feature",
      "id": "a213",
      "properties": {
        "zip": "24150",
        "province": "ฉะเชิงเทรา",
        "district": "บางน้ำเปรี้ยว"
      },
      "geometry": {
        "type": "Point",
        "coordinates": [
          101.048549,
          13.871792
        ]
      }
    },
    {
      "type": "Feature",
      "id": "a214",
      "properties": {
        "zip": "24170",
        "province": "ฉะเชิงเทรา",
        "district": "บางน้ำเปรี้ยว"
      },
      "geometry": {
        "type": "Point",
        "coordinates": [
          100.9580947,
          13.9216171
        ]
      }
    },
    {
      "type": "Feature",
      "id": "a215",
      "properties": {
        "zip": "24000",
        "province": "ฉะเชิงเทรา",
        "district": "บางน้ำเปรี้ยว"
      },
      "geometry": {
        "type": "Point",
        "coordinates": [
          101.0793925,
          13.7456051
        ]
      }
    },
    {
      "type": "Feature",
      "id": "a216",
      "properties": {
        "zip": "24130",
        "province": "ฉะเชิงเทรา",
        "district": "บางปะกง"
      },
      "geometry": {
        "type": "Point",
        "coordinates": [
          100.9693968,
          13.4987164
        ]
      }
    },
    {
      "type": "Feature",
      "id": "a217",
      "properties": {
        "zip": "24180",
        "province": "ฉะเชิงเทรา",
        "district": "บางปะกง"
      },
      "geometry": {
        "type": "Point",
        "coordinates": [
          100.9467939,
          13.5681165
        ]
      }
    },
    {
      "type": "Feature",
      "id": "a218",
      "properties": {
        "zip": "24140",
        "province": "ฉะเชิงเทรา",
        "district": "บ้านโพธิ์"
      },
      "geometry": {
        "type": "Point",
        "coordinates": [
          101.0938079,
          13.5957905
        ]
      }
    },
    {
      "type": "Feature",
      "id": "a219",
      "properties": {
        "zip": "24120",
        "province": "ฉะเชิงเทรา",
        "district": "พนมสารคาม"
      },
      "geometry": {
        "type": "Point",
        "coordinates": [
          101.3410688,
          13.7496342
        ]
      }
    },
    {
      "type": "Feature",
      "id": "a220",
      "properties": {
        "zip": "24120",
        "province": "ฉะเชิงเทรา",
        "district": "ราชสาส์น"
      },
      "geometry": {
        "type": "Point",
        "coordinates": [
          101.286392,
          13.7809557
        ]
      }
    },
    {
      "type": "Feature",
      "id": "a221",
      "properties": {
        "zip": "24160",
        "province": "ฉะเชิงเทรา",
        "district": "สนามชัยเขต"
      },
      "geometry": {
        "type": "Point",
        "coordinates": [
          101.4381602,
          13.6581446
        ]
      }
    },
    {
      "type": "Feature",
      "id": "a222",
      "properties": {
        "zip": "24190",
        "province": "ฉะเชิงเทรา",
        "district": "แปลงยาว"
      },
      "geometry": {
        "type": "Point",
        "coordinates": [
          101.2493924,
          13.6068853
        ]
      }
    },
    {
      "type": "Feature",
      "id": "a223",
      "properties": {
        "zip": "24160",
        "province": "ฉะเชิงเทรา",
        "district": "ท่าตะเกียบ"
      },
      "geometry": {
        "type": "Point",
        "coordinates": [
          101.7296049,
          13.4754941
        ]
      }
    },
    {
      "type": "Feature",
      "id": "a224",
      "properties": {
        "zip": "24000",
        "province": "ฉะเชิงเทรา",
        "district": "คลองเขื่อน"
      },
      "geometry": {
        "type": "Point",
        "coordinates": [
          101.1673984,
          13.780713
        ]
      }
    },
    {
      "type": "Feature",
      "id": "a225",
      "properties": {
        "zip": "24110",
        "province": "ฉะเชิงเทรา",
        "district": "คลองเขื่อน"
      },
      "geometry": {
        "type": "Point",
        "coordinates": [
          101.1673984,
          13.780713
        ]
      }
    },
    {
      "type": "Feature",
      "id": "a226",
      "properties": {
        "zip": "25000",
        "province": "ปราจีนบุรี",
        "district": "เมืองปราจีนบุรี"
      },
      "geometry": {
        "type": "Point",
        "coordinates": [
          101.3784849,
          14.0552548
        ]
      }
    },
    {
      "type": "Feature",
      "id": "a227",
      "properties": {
        "zip": "25230",
        "province": "ปราจีนบุรี",
        "district": "เมืองปราจีนบุรี"
      },
      "geometry": {
        "type": "Point",
        "coordinates": [
          101.3559574,
          14.1048307
        ]
      }
    },
    {
      "type": "Feature",
      "id": "a228",
      "properties": {
        "zip": "25110",
        "province": "ปราจีนบุรี",
        "district": "กบินทร์บุรี"
      },
      "geometry": {
        "type": "Point",
        "coordinates": [
          101.834905,
          14.0650764
        ]
      }
    },
    {
      "type": "Feature",
      "id": "a229",
      "properties": {
        "zip": "25240",
        "province": "ปราจีนบุรี",
        "district": "กบินทร์บุรี"
      },
      "geometry": {
        "type": "Point",
        "coordinates": [
          101.7637775,
          13.9865542
        ]
      }
    },
    {
      "type": "Feature",
      "id": "a230",
      "properties": {
        "zip": "25220",
        "province": "ปราจีนบุรี",
        "district": "นาดี"
      },
      "geometry": {
        "type": "Point",
        "coordinates": [
          101.7751709,
          14.2030447
        ]
      }
    },
    {
      "type": "Feature",
      "id": "a231",
      "properties": {
        "zip": "25150",
        "province": "ปราจีนบุรี",
        "district": "บ้านสร้าง"
      },
      "geometry": {
        "type": "Point",
        "coordinates": [
          101.2240441,
          14.0065988
        ]
      }
    },
    {
      "type": "Feature",
      "id": "a232",
      "properties": {
        "zip": "25130",
        "province": "ปราจีนบุรี",
        "district": "ประจันตคาม"
      },
      "geometry": {
        "type": "Point",
        "coordinates": [
          101.4963935,
          14.0508866
        ]
      }
    },
    {
      "type": "Feature",
      "id": "a233",
      "properties": {
        "zip": "25140",
        "province": "ปราจีนบุรี",
        "district": "ศรีมหาโพธิ"
      },
      "geometry": {
        "type": "Point",
        "coordinates": [
          101.5020752,
          13.8964152
        ]
      }
    },
    {
      "type": "Feature",
      "id": "a234",
      "properties": {
        "zip": "25190",
        "province": "ปราจีนบุรี",
        "district": "ศรีมโหสถ"
      },
      "geometry": {
        "type": "Point",
        "coordinates": [
          101.4561219,
          13.8320366
        ]
      }
    },
    {
      "type": "Feature",
      "id": "a235",
      "properties": {
        "zip": "26000",
        "province": "นครนายก",
        "district": "เมืองนครนายก"
      },
      "geometry": {
        "type": "Point",
        "coordinates": [
          101.2268773,
          14.2038387
        ]
      }
    },
    {
      "type": "Feature",
      "id": "a236",
      "properties": {
        "zip": "26130",
        "province": "นครนายก",
        "district": "ปากพลี"
      },
      "geometry": {
        "type": "Point",
        "coordinates": [
          101.2920619,
          14.1063403
        ]
      }
    },
    {
      "type": "Feature",
      "id": "a237",
      "properties": {
        "zip": "26110",
        "province": "นครนายก",
        "district": "บ้านนา"
      },
      "geometry": {
        "type": "Point",
        "coordinates": [
          101.0697615,
          14.2613322
        ]
      }
    },
    {
      "type": "Feature",
      "id": "a238",
      "properties": {
        "zip": "26120",
        "province": "นครนายก",
        "district": "องครักษ์"
      },
      "geometry": {
        "type": "Point",
        "coordinates": [
          100.997658,
          14.0971575
        ]
      }
    },
    {
      "type": "Feature",
      "id": "a239",
      "properties": {
        "zip": "27000",
        "province": "สระแก้ว",
        "district": "เมืองสระแก้ว"
      },
      "geometry": {
        "type": "Point",
        "coordinates": [
          102.0645821,
          13.8240407
        ]
      }
    },
    {
      "type": "Feature",
      "id": "a240",
      "properties": {
        "zip": "27260",
        "province": "สระแก้ว",
        "district": "คลองหาด"
      },
      "geometry": {
        "type": "Point",
        "coordinates": [
          102.3070208,
          13.448373
        ]
      }
    },
    {
      "type": "Feature",
      "id": "a241",
      "properties": {
        "zip": "27180",
        "province": "สระแก้ว",
        "district": "ตาพระยา"
      },
      "geometry": {
        "type": "Point",
        "coordinates": [
          102.589708,
          14.1115298
        ]
      }
    },
    {
      "type": "Feature",
      "id": "a242",
      "properties": {
        "zip": "27210",
        "province": "สระแก้ว",
        "district": "วังน้ำเย็น"
      },
      "geometry": {
        "type": "Point",
        "coordinates": [
          102.0946818,
          13.5034908
        ]
      }
    },
    {
      "type": "Feature",
      "id": "a243",
      "properties": {
        "zip": "27160",
        "province": "สระแก้ว",
        "district": "วัฒนานคร"
      },
      "geometry": {
        "type": "Point",
        "coordinates": [
          102.334934,
          13.7303147
        ]
      }
    },
    {
      "type": "Feature",
      "id": "a244",
      "properties": {
        "zip": "27120",
        "province": "สระแก้ว",
        "district": "อรัญประเทศ"
      },
      "geometry": {
        "type": "Point",
        "coordinates": [
          102.5203939,
          13.7479007
        ]
      }
    },
    {
      "type": "Feature",
      "id": "a245",
      "properties": {
        "zip": "27000",
        "province": "สระแก้ว",
        "district": "เขาฉกรรจ์"
      },
      "geometry": {
        "type": "Point",
        "coordinates": [
          102.0645821,
          13.8240407
        ]
      }
    },
    {
      "type": "Feature",
      "id": "a246",
      "properties": {
        "zip": "27120",
        "province": "สระแก้ว",
        "district": "โคกสูง"
      },
      "geometry": {
        "type": "Point",
        "coordinates": [
          102.7003989,
          13.8151696
        ]
      }
    },
    {
      "type": "Feature",
      "id": "a247",
      "properties": {
        "zip": "27180",
        "province": "สระแก้ว",
        "district": "โคกสูง"
      },
      "geometry": {
        "type": "Point",
        "coordinates": [
          102.5994097,
          13.8400359
        ]
      }
    },
    {
      "type": "Feature",
      "id": "a248",
      "properties": {
        "zip": "27250",
        "province": "สระแก้ว",
        "district": "วังสมบูรณ์"
      },
      "geometry": {
        "type": "Point",
        "coordinates": [
          102.2319048,
          13.3152042
        ]
      }
    },
    {
      "type": "Feature",
      "id": "a249",
      "properties": {
        "zip": "30000",
        "province": "นครราชสีมา",
        "district": "เมืองนครราชสีมา"
      },
      "geometry": {
        "type": "Point",
        "coordinates": [
          102.1175404,
          14.9415189
        ]
      }
    },
    {
      "type": "Feature",
      "id": "a250",
      "properties": {
        "zip": "30310",
        "province": "นครราชสีมา",
        "district": "เมืองนครราชสีมา"
      },
      "geometry": {
        "type": "Point",
        "coordinates": [
          102.1404037,
          15.0551186
        ]
      }
    },
    {
      "type": "Feature",
      "id": "a251",
      "properties": {
        "zip": "30280",
        "province": "นครราชสีมา",
        "district": "เมืองนครราชสีมา"
      },
      "geometry": {
        "type": "Point",
        "coordinates": [
          101.9576317,
          15.0649072
        ]
      }
    },
    {
      "type": "Feature",
      "id": "a252",
      "properties": {
        "zip": "30250",
        "province": "นครราชสีมา",
        "district": "ครบุรี"
      },
      "geometry": {
        "type": "Point",
        "coordinates": [
          102.1061105,
          14.5866835
        ]
      }
    },
    {
      "type": "Feature",
      "id": "a253",
      "properties": {
        "zip": "30330",
        "province": "นครราชสีมา",
        "district": "เสิงสาง"
      },
      "geometry": {
        "type": "Point",
        "coordinates": [
          102.4839212,
          14.3723113
        ]
      }
    },
    {
      "type": "Feature",
      "id": "a254",
      "properties": {
        "zip": "30260",
        "province": "นครราชสีมา",
        "district": "คง"
      },
      "geometry": {
        "type": "Point",
        "coordinates": [
          102.3234816,
          15.4129378
        ]
      }
    },
    {
      "type": "Feature",
      "id": "a255",
      "properties": {
        "zip": "30350",
        "province": "นครราชสีมา",
        "district": "บ้านเหลื่อม"
      },
      "geometry": {
        "type": "Point",
        "coordinates": [
          102.1289715,
          15.6195755
        ]
      }
    },
    {
      "type": "Feature",
      "id": "a256",
      "properties": {
        "zip": "30230",
        "province": "นครราชสีมา",
        "district": "จักราช"
      },
      "geometry": {
        "type": "Point",
        "coordinates": [
          102.4495221,
          15.026754
        ]
      }
    },
    {
      "type": "Feature",
      "id": "a257",
      "properties": {
        "zip": "30190",
        "province": "นครราชสีมา",
        "district": "โชคชัย"
      },
      "geometry": {
        "type": "Point",
        "coordinates": [
          102.1609718,
          14.72328
        ]
      }
    },
    {
      "type": "Feature",
      "id": "a258",
      "properties": {
        "zip": "30210",
        "province": "นครราชสีมา",
        "district": "ด่านขุนทด"
      },
      "geometry": {
        "type": "Point",
        "coordinates": [
          101.7637775,
          15.1786657
        ]
      }
    },
    {
      "type": "Feature",
      "id": "a259",
      "properties": {
        "zip": "36220",
        "province": "นครราชสีมา",
        "district": "ด่านขุนทด"
      },
      "geometry": {
        "type": "Point",
        "coordinates": [
          101.7475374,
          15.211024
        ]
      }
    },
    {
      "type": "Feature",
      "id": "a260",
      "properties": {
        "zip": "30220",
        "province": "นครราชสีมา",
        "district": "โนนไทย"
      },
      "geometry": {
        "type": "Point",
        "coordinates": [
          102.060403,
          15.2088556
        ]
      }
    },
    {
      "type": "Feature",
      "id": "a261",
      "properties": {
        "zip": "30160",
        "province": "นครราชสีมา",
        "district": "โนนสูง"
      },
      "geometry": {
        "type": "Point",
        "coordinates": [
          102.3005803,
          15.2072285
        ]
      }
    },
    {
      "type": "Feature",
      "id": "a262",
      "properties": {
        "zip": "30420",
        "province": "นครราชสีมา",
        "district": "โนนสูง"
      },
      "geometry": {
        "type": "Point",
        "coordinates": [
          102.3807553,
          15.2602449
        ]
      }
    },
    {
      "type": "Feature",
      "id": "a263",
      "properties": {
        "zip": "30290",
        "province": "นครราชสีมา",
        "district": "ขามสะแกแสง"
      },
      "geometry": {
        "type": "Point",
        "coordinates": [
          102.1804261,
          15.3575998
        ]
      }
    },
    {
      "type": "Feature",
      "id": "a264",
      "properties": {
        "zip": "30120",
        "province": "นครราชสีมา",
        "district": "บัวใหญ่"
      },
      "geometry": {
        "type": "Point",
        "coordinates": [
          102.4253001,
          15.5835978
        ]
      }
    },
    {
      "type": "Feature",
      "id": "a265",
      "properties": {
        "zip": "30180",
        "province": "นครราชสีมา",
        "district": "ประทาย"
      },
      "geometry": {
        "type": "Point",
        "coordinates": [
          102.7307497,
          15.5334573
        ]
      }
    },
    {
      "type": "Feature",
      "id": "a266",
      "properties": {
        "zip": "30150",
        "province": "นครราชสีมา",
        "district": "ปักธงชัย"
      },
      "geometry": {
        "type": "Point",
        "coordinates": [
          102.0438378,
          14.786474
        ]
      }
    },
    {
      "type": "Feature",
      "id": "a267",
      "properties": {
        "zip": "30110",
        "province": "นครราชสีมา",
        "district": "พิมาย"
      },
      "geometry": {
        "type": "Point",
        "coordinates": [
          102.4839212,
          15.1970346
        ]
      }
    },
    {
      "type": "Feature",
      "id": "a268",
      "properties": {
        "zip": "30240",
        "province": "นครราชสีมา",
        "district": "ห้วยแถลง"
      },
      "geometry": {
        "type": "Point",
        "coordinates": [
          102.7003451,
          14.989289
        ]
      }
    },
    {
      "type": "Feature",
      "id": "a269",
      "properties": {
        "zip": "30270",
        "province": "นครราชสีมา",
        "district": "ชุมพวง"
      },
      "geometry": {
        "type": "Point",
        "coordinates": [
          102.742295,
          15.3500317
        ]
      }
    },
    {
      "type": "Feature",
      "id": "a270",
      "properties": {
        "zip": "30170",
        "province": "นครราชสีมา",
        "district": "สูงเนิน"
      },
      "geometry": {
        "type": "Point",
        "coordinates": [
          101.8322677,
          14.8704596
        ]
      }
    },
    {
      "type": "Feature",
      "id": "a271",
      "properties": {
        "zip": "30380",
        "province": "นครราชสีมา",
        "district": "สูงเนิน"
      },
      "geometry": {
        "type": "Point",
        "coordinates": [
          101.900579,
          14.8267147
        ]
      }
    },
    {
      "type": "Feature",
      "id": "a272",
      "properties": {
        "zip": "30280",
        "province": "นครราชสีมา",
        "district": "ขามทะเลสอ"
      },
      "geometry": {
        "type": "Point",
        "coordinates": [
          101.9690458,
          14.9608979
        ]
      }
    },
    {
      "type": "Feature",
      "id": "a273",
      "properties": {
        "zip": "30140",
        "province": "นครราชสีมา",
        "district": "สีคิ้ว"
      },
      "geometry": {
        "type": "Point",
        "coordinates": [
          101.5930268,
          14.9919687
        ]
      }
    },
    {
      "type": "Feature",
      "id": "a274",
      "properties": {
        "zip": "30340",
        "province": "นครราชสีมา",
        "district": "สีคิ้ว"
      },
      "geometry": {
        "type": "Point",
        "coordinates": [
          101.5930268,
          14.8540321
        ]
      }
    },
    {
      "type": "Feature",
      "id": "a275",
      "properties": {
        "zip": "30130",
        "province": "นครราชสีมา",
        "district": "ปากช่อง"
      },
      "geometry": {
        "type": "Point",
        "coordinates": [
          101.3658004,
          14.7275612
        ]
      }
    },
    {
      "type": "Feature",
      "id": "a276",
      "properties": {
        "zip": "30320",
        "province": "นครราชสีมา",
        "district": "ปากช่อง"
      },
      "geometry": {
        "type": "Point",
        "coordinates": [
          101.2750531,
          14.6401336
        ]
      }
    },
    {
      "type": "Feature",
      "id": "a277",
      "properties": {
        "zip": "30410",
        "province": "นครราชสีมา",
        "district": "หนองบุญมาก"
      },
      "geometry": {
        "type": "Point",
        "coordinates": [
          102.3937099,
          14.7358946
        ]
      }
    },
    {
      "type": "Feature",
      "id": "a278",
      "properties": {
        "zip": "30440",
        "province": "นครราชสีมา",
        "district": "แก้งสนามนาง"
      },
      "geometry": {
        "type": "Point",
        "coordinates": [
          102.2662372,
          15.7271335
        ]
      }
    },
    {
      "type": "Feature",
      "id": "a279",
      "properties": {
        "zip": "30360",
        "province": "นครราชสีมา",
        "district": "โนนแดง"
      },
      "geometry": {
        "type": "Point",
        "coordinates": [
          102.5412761,
          15.4121381
        ]
      }
    },
    {
      "type": "Feature",
      "id": "a280",
      "properties": {
        "zip": "30370",
        "province": "นครราชสีมา",
        "district": "วังน้ำเขียว"
      },
      "geometry": {
        "type": "Point",
        "coordinates": [
          101.6840589,
          14.4364486
        ]
      }
    },
    {
      "type": "Feature",
      "id": "a281",
      "properties": {
        "zip": "30150",
        "province": "นครราชสีมา",
        "district": "วังน้ำเขียว"
      },
      "geometry": {
        "type": "Point",
        "coordinates": [
          101.8620066,
          14.4173143
        ]
      }
    },
    {
      "type": "Feature",
      "id": "a282",
      "properties": {
        "zip": "30210",
        "province": "นครราชสีมา",
        "district": "เทพารักษ์"
      },
      "geometry": {
        "type": "Point",
        "coordinates": [
          101.5020752,
          15.2729261
        ]
      }
    },
    {
      "type": "Feature",
      "id": "a283",
      "properties": {
        "zip": "30270",
        "province": "นครราชสีมา",
        "district": "เมืองยาง"
      },
      "geometry": {
        "type": "Point",
        "coordinates": [
          102.8263206,
          15.2227739
        ]
      }
    },
    {
      "type": "Feature",
      "id": "a284",
      "properties": {
        "zip": "30220",
        "province": "นครราชสีมา",
        "district": "พระทองคำ"
      },
      "geometry": {
        "type": "Point",
        "coordinates": [
          101.9831805,
          15.3708926
        ]
      }
    },
    {
      "type": "Feature",
      "id": "a285",
      "properties": {
        "zip": "30270",
        "province": "นครราชสีมา",
        "district": "ลำทะเมนชัย"
      },
      "geometry": {
        "type": "Point",
        "coordinates": [
          102.9205295,
          15.2868802
        ]
      }
    },
    {
      "type": "Feature",
      "id": "a286",
      "properties": {
        "zip": "30120",
        "province": "นครราชสีมา",
        "district": "บัวลาย"
      },
      "geometry": {
        "type": "Point",
        "coordinates": [
          102.4724537,
          15.6462253
        ]
      }
    },
    {
      "type": "Feature",
      "id": "a287",
      "properties": {
        "zip": "30430",
        "province": "นครราชสีมา",
        "district": "สีดา"
      },
      "geometry": {
        "type": "Point",
        "coordinates": [
          102.5642261,
          15.5718701
        ]
      }
    },
    {
      "type": "Feature",
      "id": "a288",
      "properties": {
        "zip": "30230",
        "province": "นครราชสีมา",
        "district": "เฉลิมพระเกียรติ"
      },
      "geometry": {
        "type": "Point",
        "coordinates": [
          102.2776838,
          15.0017506
        ]
      }
    },
    {
      "type": "Feature",
      "id": "a289",
      "properties": {
        "zip": "30000",
        "province": "นครราชสีมา",
        "district": "เฉลิมพระเกียรติ"
      },
      "geometry": {
        "type": "Point",
        "coordinates": [
          102.2776838,
          15.0017506
        ]
      }
    },
    {
      "type": "Feature",
      "id": "a290",
      "properties": {
        "zip": "31000",
        "province": "บุรีรัมย์",
        "district": "เมืองบุรีรัมย์"
      },
      "geometry": {
        "type": "Point",
        "coordinates": [
          103.035694,
          14.8905684
        ]
      }
    },
    {
      "type": "Feature",
      "id": "a291",
      "properties": {
        "zip": "31190",
        "province": "บุรีรัมย์",
        "district": "คูเมือง"
      },
      "geometry": {
        "type": "Point",
        "coordinates": [
          103.0126523,
          15.3273836
        ]
      }
    },
    {
      "type": "Feature",
      "id": "a292",
      "properties": {
        "zip": "31160",
        "province": "บุรีรัมย์",
        "district": "กระสัง"
      },
      "geometry": {
        "type": "Point",
        "coordinates": [
          103.3009828,
          14.9094632
        ]
      }
    },
    {
      "type": "Feature",
      "id": "a293",
      "properties": {
        "zip": "31110",
        "province": "บุรีรัมย์",
        "district": "นางรอง"
      },
      "geometry": {
        "type": "Point",
        "coordinates": [
          103.0081326,
          15.2427118
        ]
      }
    },
    {
      "type": "Feature",
      "id": "a294",
      "properties": {
        "zip": "31210",
        "province": "บุรีรัมย์",
        "district": "หนองกี่"
      },
      "geometry": {
        "type": "Point",
        "coordinates": [
          102.5757028,
          14.7332797
        ]
      }
    },
    {
      "type": "Feature",
      "id": "a295",
      "properties": {
        "zip": "31170",
        "province": "บุรีรัมย์",
        "district": "ละหานทราย"
      },
      "geometry": {
        "type": "Point",
        "coordinates": [
          102.8744945,
          14.4196566
        ]
      }
    },
    {
      "type": "Feature",
      "id": "a296",
      "properties": {
        "zip": "31140",
        "province": "บุรีรัมย์",
        "district": "ประโคนชัย"
      },
      "geometry": {
        "type": "Point",
        "coordinates": [
          103.0933171,
          14.6014909
        ]
      }
    },
    {
      "type": "Feature",
      "id": "a297",
      "properties": {
        "zip": "31180",
        "province": "บุรีรัมย์",
        "district": "บ้านกรวด"
      },
      "geometry": {
        "type": "Point",
        "coordinates": [
          103.0990809,
          14.4356818
        ]
      }
    },
    {
      "type": "Feature",
      "id": "a298",
      "properties": {
        "zip": "31120",
        "province": "บุรีรัมย์",
        "district": "พุทไธสง"
      },
      "geometry": {
        "type": "Point",
        "coordinates": [
          102.9974351,
          15.4910959
        ]
      }
    },
    {
      "type": "Feature",
      "id": "a299",
      "properties": {
        "zip": "31130",
        "province": "บุรีรัมย์",
        "district": "ลำปลายมาศ"
      },
      "geometry": {
        "type": "Point",
        "coordinates": [
          102.8458197,
          15.0281466
        ]
      }
    },
    {
      "type": "Feature",
      "id": "a300",
      "properties": {
        "zip": "31150",
        "province": "บุรีรัมย์",
        "district": "สตึก"
      },
      "geometry": {
        "type": "Point",
        "coordinates": [
          103.2948473,
          15.3003013
        ]
      }
    },
    {
      "type": "Feature",
      "id": "a301",
      "properties": {
        "zip": "31220",
        "province": "บุรีรัมย์",
        "district": "ปะคำ"
      },
      "geometry": {
        "type": "Point",
        "coordinates": [
          102.644587,
          14.4322181
        ]
      }
    },
    {
      "type": "Feature",
      "id": "a302",
      "properties": {
        "zip": "31230",
        "province": "บุรีรัมย์",
        "district": "นาโพธิ์"
      },
      "geometry": {
        "type": "Point",
        "coordinates": [
          102.9346988,
          15.6408669
        ]
      }
    },
    {
      "type": "Feature",
      "id": "a303",
      "properties": {
        "zip": "31240",
        "province": "บุรีรัมย์",
        "district": "หนองหงส์"
      },
      "geometry": {
        "type": "Point",
        "coordinates": [
          102.644587,
          14.8898061
        ]
      }
    },
    {
      "type": "Feature",
      "id": "a304",
      "properties": {
        "zip": "31250",
        "province": "บุรีรัมย์",
        "district": "พลับพลาชัย"
      },
      "geometry": {
        "type": "Point",
        "coordinates": [
          103.1509672,
          14.7238528
        ]
      }
    },
    {
      "type": "Feature",
      "id": "a305",
      "properties": {
        "zip": "31000",
        "province": "บุรีรัมย์",
        "district": "ห้วยราช"
      },
      "geometry": {
        "type": "Point",
        "coordinates": [
          103.1828685,
          14.9765027
        ]
      }
    },
    {
      "type": "Feature",
      "id": "a306",
      "properties": {
        "zip": "31110",
        "province": "บุรีรัมย์",
        "district": "โนนสุวรรณ"
      },
      "geometry": {
        "type": "Point",
        "coordinates": [
          102.597852,
          14.5744185
        ]
      }
    },
    {
      "type": "Feature",
      "id": "a307",
      "properties": {
        "zip": "31110",
        "province": "บุรีรัมย์",
        "district": "ชำนิ"
      },
      "geometry": {
        "type": "Point",
        "coordinates": [
          102.8457316,
          14.7926661
        ]
      }
    },
    {
      "type": "Feature",
      "id": "a308",
      "properties": {
        "zip": "31120",
        "province": "บุรีรัมย์",
        "district": "บ้านใหม่ไชยพจน์"
      },
      "geometry": {
        "type": "Point",
        "coordinates": [
          102.8284772,
          15.5679804
        ]
      }
    },
    {
      "type": "Feature",
      "id": "a309",
      "properties": {
        "zip": "31260",
        "province": "บุรีรัมย์",
        "district": "โนนดินแดง"
      },
      "geometry": {
        "type": "Point",
        "coordinates": [
          102.7485673,
          14.3121305
        ]
      }
    },
    {
      "type": "Feature",
      "id": "a310",
      "properties": {
        "zip": "31000",
        "province": "บุรีรัมย์",
        "district": "บ้านด่าน"
      },
      "geometry": {
        "type": "Point",
        "coordinates": [
          103.1591164,
          15.1128022
        ]
      }
    },
    {
      "type": "Feature",
      "id": "a311",
      "properties": {
        "zip": "31150",
        "province": "บุรีรัมย์",
        "district": "แคนดง"
      },
      "geometry": {
        "type": "Point",
        "coordinates": [
          103.1163739,
          15.3097773
        ]
      }
    },
    {
      "type": "Feature",
      "id": "a312",
      "properties": {
        "zip": "31110",
        "province": "บุรีรัมย์",
        "district": "เฉลิมพระเกียรติ"
      },
      "geometry": {
        "type": "Point",
        "coordinates": [
          102.8744945,
          14.5566749
        ]
      }
    },
    {
      "type": "Feature",
      "id": "a313",
      "properties": {
        "zip": "31170",
        "province": "บุรีรัมย์",
        "district": "เฉลิมพระเกียรติ"
      },
      "geometry": {
        "type": "Point",
        "coordinates": [
          102.8744945,
          14.5566749
        ]
      }
    },
    {
      "type": "Feature",
      "id": "a314",
      "properties": {
        "zip": "32000",
        "province": "สุรินทร์",
        "district": "เมืองสุรินทร์"
      },
      "geometry": {
        "type": "Point",
        "coordinates": [
          103.4937242,
          14.8828674
        ]
      }
    },
    {
      "type": "Feature",
      "id": "a315",
      "properties": {
        "zip": "32190",
        "province": "สุรินทร์",
        "district": "ชุมพลบุรี"
      },
      "geometry": {
        "type": "Point",
        "coordinates": [
          103.4280586,
          15.3942217
        ]
      }
    },